Id,File,label,date,time,PosixTime,begin[sec],end[sec],msec,clip[usec],lat[deg],lon[deg],depth[m],heading[deg],dec[deg],pitch[deg],roll[deg],state,duration[usec],low_i,high_i,energy[%],SNR[dB],Fp[kHz],Fc[kHz],begin_3dB_BW[kHz],-3dB_BW[kHz],begin_10dB_BW[kHz],-10dB_BW[kHz],RMS[kHz],Qrms,Fs[kHz],energy_per[%],energy110,energy110_160,energy160_256,slope_max_wvd
1,20230630T094513Z,Kogia-D,2023/06/30,10:11:08.169,1688119868.169,1555.169421,1555.170017,0.421,596,28.61915,-18.691683,566.24,298.69,-5,18.58,2.33,117,201,52,154,93.8144844620201,14.1856820620343,115.2,114.996026174181,110.8,8.40000000000001,107.2,15.6,5.99752005677354,19.173929405089,512,93.8144844620201,0.19228168468293,0.80771831531707,0,-0.00449362843729028
2,20230630T094513Z,Kogia-B,2023/06/30,10:11:08.368,1688119868.368,1555.368817,1555.369671,0.817,854,28.61915,-18.691684,566.18,298.67,-5,18.58,2.29,117,225,59,173,99.4622292626681,26.1842307556364,113.6,113.840259148453,109.6,7.60000000000001,106.4,14.4,4.8646696491408,23.4014367591352,512,99.4622292626681,0.264421229441141,0.735578770558859,0,-0.0161157993436472
3,20230630T094513Z,Kogia-E,2023/06/30,10:11:08.558,1688119868.558,1555.558299,1555.559269,0.299,970,28.61915,-18.691683,566.21,298.69,-5,18.58,2.31,117,182,33,125,99.4797747380048,29.5759263240998,113.6,113.748679601426,108.8,9.60000000000001,104.8,17.6,4.86066256052973,23.4018877436802,512,99.4797747380048,0.19963396687429,0.80036603312571,0,2.96984867904788E-18
4,20230630T094513Z,Kogia-A,2023/06/30,10:11:08.745,1688119868.745,1555.745011,1555.746086,0.011,1075,28.61915,-18.691683,566.22,298.69,-5,18.58,2.32,117,182,47,139,99.4574388147558,29.9449260013365,113.2,113.442307279154,108.4,9.59999999999999,104.4,17.2,5.61838920561242,20.1912511090958,512,99.4574388147558,0.241329638239471,0.758670361760529,0,-2.20761600204702E-16
5,20230630T094513Z,Kogia-B,2023/06/30,10:11:08.930,1688119868.93,1555.930976,1555.931699,0.976,723,28.61915,-18.691685,566.11,298.65,-5,18.58,2.25,117,230,103,220,99.0199147945186,21.2808291841601,111.6,112.021383597638,108,8,104.8,15.2,7.4076773053395,15.1223357849149,512,99.0199147945186,0.469923705211712,0.530076294788288,0,-0.0149850149850151
6,20230630T094513Z,Kogia-C,2023/06/30,10:11:09.101,1688119869.101,1556.101679,1556.102509,0.679,830,28.61915,-18.691685,566.12,298.65,-5,18.58,2.26,117,186,138,232,95.8609638052309,17.7646578504308,113.6,113.039873441031,108.4,10,104.4,17.6,8.66956095242775,13.0387079647184,512,95.8609638052309,0.258731478620192,0.741268521379808,0,7.74789961702658E-18
7,20230630T094513Z,Kogia-C,2023/06/30,10:11:09.240,1688119869.24,1556.240799,1556.24156,0.799,761,28.61915,-18.691685,566.1,298.64,-5,18.58,2.24,117,160,78,159,97.1096425338273,21.9357899175805,112.8,112.043017416346,107.2,11.2,102.4,20.4,9.4173406032992,11.8975220432289,512,97.1096425338273,0.347631699266614,0.652368300733386,0,-0.0117224880382776
8,20230630T094513Z,Kogia-C,2023/06/30,10:11:09.372,1688119869.372,1556.372157,1556.373132,0.157,975,28.61915,-18.691684,566.15,298.66,-5,18.58,2.27,117,127,97,161,95.0521101092121,21.005366115812,112.8,112.550078492398,106,13.2,100.8,23.2,6.80912645735828,16.5292977296332,512,95.0521101092121,0.357168733552457,0.642831266447543,0,-0.011669561441598
9,20230630T094513Z,Kogia-C,2023/06/30,10:11:09.527,1688119869.527,1556.527183,1556.527887,0.183,704,28.61915,-18.691685,566.13,298.66,-5,18.58,2.26,117,176,79,168,95.9068597904582,18.0269839639189,114,113.551044463741,108.8,10,104,18.8,8.72554085705397,13.0136396498497,512,95.9068597904582,0.377889757248654,0.622110242751346,0,-0.00999471179270231
10,20230630T094513Z,Kogia-C,2023/06/30,10:11:09.720,1688119869.72,1556.720794,1556.72148,0.794,686,28.61915,-18.691686,566.05,298.63,-5,18.57,2.21,117,225,59,173,90.3932735865833,10.2632054474268,115.2,110.310244273201,111.6,7.2,108,14,22.9152029200589,4.81384540464357,512,90.3932735865833,0.145374890784947,0.854625109215053,0,1.38898870668195E-16
11,20230630T094513Z,Kogia-C,2023/06/30,10:11:09.921,1688119869.921,1556.921004,1556.921585,0.004,581,28.61915,-18.691685,566.11,298.65,-5,18.58,2.25,117,152,39,116,82.4737339536177,10.9786133491395,115.2,112.031548820187,109.6,11.2,104.4,20.8,19.5126944973501,5.74146993565659,512,82.4737339536177,0.348481152393882,0.651518847606118,0,-0.0129817771327209
12,20230630T094513Z,Kogia-C,2023/06/30,10:11:10.072,1688119870.072,1557.072122,1557.072626,0.122,504,28.61915,-18.691685,566.08,298.64,-5,18.58,2.23,117,146,34,108,81.432371071734,10.3297129482264,114.4,113.635047094921,107.6,13.6,102,24.4,11.9581817157418,9.50270281855067,512,81.432371071734,0.399035171570551,0.600964828429449,0,-0.0382653061224493
13,20230630T094513Z,Kogia-C,2023/06/30,10:11:10.213,1688119870.213,1557.213268,1557.213839,0.268,571,28.61915,-18.691686,566.05,298.63,-5,18.57,2.21,117,162,52,134,80.5779360385255,9.44215150372886,112.8,109.420781423924,106.8,11.2,102,20.8,20.3465803255537,5.37784628537801,512,80.5779360385255,0.39429816850832,0.60570183149168,0,-0.0144565960355438
14,20230630T094513Z,Kogia-C,2023/06/30,10:11:10.375,1688119870.375,1557.375379,1557.376034,0.379,655,28.61915,-18.691686,566.02,298.62,-5,18.57,2.2,117,143,58,130,73.4901776839463,7.07497914934471,111.6,99.7048196025847,104.8,14,11.2,112.8,33.5460361377869,2.97217886468188,512,73.4901776839463,0.600884389585463,0.399115610414537,0,-0.187740117817809
15,20230630T094513Z,Kogia-C,2023/06/30,10:11:10.555,1688119870.555,1557.555266,1557.555759,0.266,493,28.61915,-18.691686,566.02,298.62,-5,18.57,2.19,117,186,35,129,77.698239424795,6.67438405962489,111.2,113.461555136585,105.6,11.2,100.8,21.2,16.0955559797066,7.04924733756564,512,77.698239424795,0.426230654559045,0.573769345440955,0,0.0247095010252904
16,20230630T094513Z,Kogia-C,2023/06/30,10:11:18.023,1688119878.023,1565.023847,1565.024316,0.847,469,28.61915,-18.6917,565.21,298.33,-5,18.54,1.69,117,170,77,163,78.4131288029533,6.05778467588339,115.2,110.761156661868,110.4,9.59999999999999,106,18,23.6811603025904,4.67718453177957,512,78.4131288029533,0.231985689761059,0.768014310238942,0,-2.04919558854304E-16
17,20230630T094513Z,Kogia-C,2023/06/30,10:11:18.231,1688119878.231,1565.231498,1565.232104,0.498,606,28.61915,-18.6917,565.23,298.34,-5,18.54,1.7,117,383,22,217,88.8334194270804,1.93599361035827,116.4,99.4429981840471,113.2,6,8,112.8,40.9331515008105,2.4293999982405,512,88.8334194270804,0.164809734578428,0.835190265421572,0,-0.282035058117735
18,20230630T094513Z,Kogia-B,2023/06/30,10:11:18.413,1688119878.413,1565.413928,1565.414839,0.928,911,28.61915,-18.691701,565.17,298.32,-5,18.54,1.66,117,209,43,149,95.844861279499,18.9154966384048,116.4,116.125887357923,112.4,8,109.2,14.4,6.81361371914763,17.0432155599877,512,95.844861279499,0.0259203667731499,0.97407963322685,0,4.15226878245656E-16
19,20230630T094513Z,Kogia-A,2023/06/30,10:11:18.612,1688119878.612,1565.612865,1565.613642,0.865,777,28.61915,-18.691701,565.15,298.31,-5,18.54,1.65,117,191,44,141,99.5760425204213,29.5631679885007,115.6,115.384853982753,110.8,8.8,107.2,16,4.40023170084324,26.2224495952432,512,99.5760425204213,0.123008393380946,0.876991606619055,0,-7.43451955013593E-17
20,20230630T094513Z,Kogia-A,2023/06/30,10:11:18.804,1688119878.804,1565.804903,1565.8056,0.903,697,28.61915,-18.691701,565.13,298.31,-5,18.54,1.64,117,209,33,139,99.2766506147385,25.200799058276,114.8,114.95614061405,110.8,8.40000000000001,107.6,14.8,4.93832576893797,23.278363152371,512,99.2766506147385,0.0802337338918674,0.919766266108133,0,0.00252904989747095
21,20230630T094513Z,Kogia-C,2023/06/30,10:11:19.185,1688119879.185,1566.185082,1566.185534,0.082,452,28.61915,-18.691701,565.17,298.32,-5,18.54,1.68,117,213,34,142,70.3332031807398,2.25522990085286,116.8,106.993793004039,112.8,8,12.4,111.2,32.6726793910281,3.2747174397157,512,70.3332031807398,0.107341570714061,0.892658429285939,0,-0.0526578684473424
22,20230630T094513Z,Kogia-C,2023/06/30,10:11:19.398,1688119879.398,1566.398745,1566.399287,0.745,542,28.619151,-18.691703,565.09,298.3,-5,18.55,1.67,117,293,36,185,95.0442307925526,10.5508514796268,117.2,116.975089998738,114.4,6,111.6,11.2,10.345061588282,11.3073362589969,512,95.0442307925526,0,1,0,-8.06000015438803E-17
23,20230630T094513Z,Kogia-B,2023/06/30,10:11:19.592,1688119879.592,1566.592982,1566.593594,0.982,612,28.619151,-18.691704,565.05,298.29,-5,18.55,1.67,117,213,10,118,95.1532977348861,16.3769698783692,115.6,115.1220879565,111.2,8.39999999999999,107.6,15.6,8.76868431325143,13.1287755202368,512,95.1532977348861,0.0866819600628482,0.913318039937152,0,1.5741677585938E-16
24,20230630T094513Z,Kogia-B,2023/06/30,10:11:19.775,1688119879.775,1566.775934,1566.776532,0.934,598,28.619151,-18.691704,565.04,298.28,-5,18.55,1.67,117,207,20,125,97.3732190379627,18.9486960779163,116,115.267631937987,112,8,108.4,14.8,10.2320945250245,11.2653017088611,512,97.3732190379627,0.149498906966002,0.850501093033998,0,2.90909418270834E-16
25,20230630T094513Z,Kogia-C,2023/06/30,10:11:19.953,1688119879.953,1566.953976,1566.954589,0.976,613,28.619152,-18.691705,565.02,298.28,-5,18.55,1.67,117,223,42,155,95.421209535143,15.2454770342664,116,113.314981064898,112.4,7.19999999999999,109.2,13.6,17.4264740495206,6.50246175691608,512,95.421209535143,0.0654213775166683,0.934578622483332,0,4.26336423272402E-16
26,20230630T094513Z,Kogia-A,2023/06/30,10:11:20.147,1688119880.147,1567.147371,1567.148123,0.371,752,28.619151,-18.691704,565.06,298.29,-5,18.55,1.67,117,184,33,126,98.9247971425456,25.1772914243082,115.6,115.190860626146,110.8,9.2,107.2,16.4,7.35324788647339,15.6653036052334,512,98.9247971425456,0.0849196026119073,0.915080397388093,0,-8.62195968295005E-17
27,20230630T094513Z,Kogia-C,2023/06/30,10:11:20.984,1688119880.984,1567.984131,1567.984448,0.131,317,28.619152,-18.691705,565,298.27,-5,18.55,1.67,117,135,40,108,60.0172773438672,0.903111303453879,113.2,108.127569924949,107.2,12,102,21.6,26.5886005166694,4.06668902551527,512,60.0172773438672,0.374101089845715,0.625898910154285,0,0
28,20230630T094513Z,Kogia-C,2023/06/30,10:11:21.127,1688119881.127,1568.127264,1568.12769,0.264,426,28.619152,-18.691706,564.97,298.26,-5,18.55,1.67,117,125,32,95,89.4329328724821,10.3708545042441,107.6,106.046630468464,100.8,13.2,95.6,23.6,15.8821188753628,6.67710847026645,512,89.4329328724821,0.88866300202073,0.11133699797927,0,2.43774788221879E-16
29,20230630T094513Z,Kogia-C,2023/06/30,10:11:21.181,1688119881.181,1568.181446,1568.181679,0.446,233,28.619152,-18.691707,564.95,298.26,-5,18.56,1.67,117,90,17,62,49.5063356086584,-1.40642474968851,116,86.1228247270382,10.8,114,3.6,128.8,48.0346556055894,1.79293103367263,512,49.5063356086584,0.595778970301437,0.404221029698563,0,0.00198624904507269
30,20230630T094513Z,Kogia-A,2023/06/30,10:11:21.296,1688119881.296,1568.296937,1568.297908,0.937,971,28.619153,-18.691708,564.89,298.24,-5,18.56,1.66,117,191,48,145,99.1096957575753,25.58303006074,112.4,112.37847732878,107.2,10,102.4,18.4,6.53634459969494,17.1928630161306,512,99.1096957575753,0.405046776449745,0.594953223550255,0,0.00887237762237739
31,20230630T094513Z,Kogia-A,2023/06/30,10:11:21.462,1688119881.462,1568.462698,1568.463338,0.698,640,28.619153,-18.691708,564.9,298.24,-5,18.56,1.66,117,199,27,128,98.2161523493761,19.1987270052122,112.8,113.331706957655,108.4,9.19999999999999,104.8,16.8,7.57264339317087,14.9659373977466,512,98.2161523493761,0.363421728821577,0.636578271178423,0,-9.40525692270275E-17
32,20230630T094513Z,Kogia-C,2023/06/30,10:11:21.629,1688119881.629,1568.629435,1568.629929,0.435,494,28.619153,-18.691708,564.91,298.24,-5,18.56,1.66,117,242,23,146,95.9319829025631,14.3766948915869,114.8,117.088256808555,110.8,8,107.6,14.4,18.0895644348553,6.47269630124136,512,95.9319829025631,0.102094072180061,0.897905927819939,0,-0.019459953635681
33,20230630T094513Z,Kogia-C,2023/06/30,10:11:21.797,1688119881.797,1568.797723,1568.798041,0.723,318,28.619153,-18.691709,564.87,298.23,-5,18.56,1.66,117,318,,,100,-3.07484472389823,115.6,108.748756680205,112.4,6.8,109.6,12.4,30.0449573279017,3.61953440284016,512,100,0.0686057935679321,0.931394206432068,0,0.164060097526688
34,20230630T094513Z,Kogia-C,2023/06/30,10:11:21.965,1688119881.965,1568.965469,1568.965857,0.469,388,28.619153,-18.691709,564.87,298.23,-5,18.56,1.66,117,389,,,100,-3.28111646324338,13.6,60.4926971922505,12,105.2,7.2,112.8,53.9218319136864,1.12185908833888,512,100,0.642965715461865,0.357034284538135,0,-0.672352872832647
35,20230630T094513Z,Kogia-C,2023/06/30,10:11:22.463,1688119882.463,1569.463223,1569.463478,0.223,255,28.619153,-18.691709,564.85,298.22,-5,18.56,1.66,117,102,30,81,44.819544141252,-2.31949130105519,115.2,107.857834857132,106.4,16.8,99.2,30,30.3070860425708,3.55883223829666,512,44.819544141252,0.292048095218448,0.707951904781552,0,-0.0385162490425648
36,20230630T094513Z,Kogia-C,2023/06/30,10:11:23.086,1688119883.086,1570.086853,1570.087306,0.853,453,28.619154,-18.691712,564.73,298.19,-5,18.57,1.65,117,164,37,120,79.6581598459904,6.31758147611658,114,104.653587529017,108.8,10,104,18.4,30.1162943328268,3.4749822263141,512,79.6581598459904,0.334132209685068,0.665867790314932,0,0.012753542650736
37,20230630T094513Z,Kogia-B,2023/06/30,10:11:23.277,1688119883.277,1570.277679,1570.278443,0.679,764,28.619154,-18.691712,564.73,298.19,-5,18.57,1.65,117,188,54,149,93.4682212469307,16.4783943078544,113.6,113.05041454484,108.8,9.60000000000001,104.8,17.2,8.81599316805799,12.8233328213596,512,93.4682212469307,0.243083634169199,0.756916365830801,0,-1.81560189087834E-16
38,20230630T094513Z,Kogia-C,2023/06/30,10:11:23.474,1688119883.474,1570.474868,1570.475359,0.868,491,28.619154,-18.691713,564.69,298.18,-5,18.57,1.65,117,213,31,139,92.3083346316741,10.4750663615328,113.6,107.483806620846,109.2,8.8,105.6,15.6,24.9394403907996,4.309792238181,512,92.3083346316741,0.205953921847296,0.794046078152704,0,0.0102628656053316
39,20230630T094513Z,Kogia-B,2023/06/30,10:11:23.671,1688119883.671,1570.671494,1570.672087,0.494,593,28.619154,-18.691713,564.71,298.18,-5,18.57,1.65,117,197,37,137,96.7259856908275,18.2501899562595,114,113.554013059009,109.2,9.2,105.2,16.8,7.50310403847653,15.134271426425,512,96.7259856908275,0.29048907957548,0.70951092042452,0,0.00193642674461071
40,20230630T094513Z,Kogia-C,2023/06/30,10:11:23.875,1688119883.875,1570.875661,1570.876255,0.661,594,28.619155,-18.691714,564.67,298.17,-5,18.57,1.65,117,264,50,184,94.1868245524767,10.7691002832771,115.2,111.733668634607,112,6.8,108.8,13.2,19.3488266673756,5.77469996271158,512,94.1868245524767,0.0338841701101161,0.966115829889884,0,-0.0579761191927021
41,20230630T094513Z,Kogia-C,2023/06/30,10:11:40.937,1688119900.937,1587.93788,1587.938441,0.88,561,28.619167,-18.691757,563,297.79,-5,18.66,1.58,117,191,37,134,80.0509388972292,7.68433013739517,114.4,116.532237326118,109.2,10.4,104.8,20,17.3767716062713,6.70620757218569,512,80.0509388972292,0.200172633326819,0.799827366673181,0,0.00622395109752659
42,20230630T094513Z,Kogia-C,2023/06/30,10:11:41.019,1688119901.019,1588.019986,1588.02025,0.986,264,28.619167,-18.691758,562.98,297.8,-5,18.66,1.59,117,176,13,102,95.4856877585447,10.1364818032335,114.8,111.79580979425,109.2,11.2,104.4,40.4,28.8072794077765,3.88081804643,512,95.4856877585447,0.311421601189089,0.688578398810911,0,0.00307607124181043
43,20230630T094513Z,Kogia-C,2023/06/30,10:11:41.113,1688119901.113,1588.113809,1588.114084,0.809,275,28.619167,-18.691757,562.99,297.8,-5,18.66,1.58,117,100,28,78,72.0737076147486,3.72780668019885,114.8,101.972504728031,107.2,15.2,7.2,120,36.3750803674328,2.80336163378841,512,72.0737076147486,0.336599088725459,0.663400911274541,0,-0.0170731707317076
44,20230630T094513Z,Kogia-C,2023/06/30,10:11:41.335,1688119901.335,1588.335735,1588.336096,0.735,361,28.619167,-18.691758,562.98,297.8,-5,18.66,1.59,117,180,21,112,79.6960481845344,3.47833105767776,118.8,102.070132172089,114.4,8.8,6.8,120,41.8068588165167,2.44146857863819,512,79.6960481845344,0.188751425061165,0.811248574938835,0,-0.0171775394129101
45,20230630T094513Z,Kogia-C,2023/06/30,10:11:41.462,1688119901.462,1588.462891,1588.463386,0.891,495,28.619167,-18.691758,562.95,297.8,-5,18.66,1.59,117,273,19,158,88.9709443366908,7.12356389251951,119.2,109.700546447744,116,6.40000000000001,113.6,11.6,30.6777990061535,3.57589364301329,512,88.9709443366908,0.070580933620166,0.929419066379834,0,-0.00475923852183686
46,20230630T094513Z,Kogia-C,2023/06/30,10:11:41.598,1688119901.598,1588.598299,1588.598751,0.299,452,28.619167,-18.691757,563,297.79,-5,18.66,1.58,117,453,,,100,-6.35386049931439,10.4,70.4035682219678,8.4,115.2,6.8,118.8,55.7545126514899,1.26274206111434,512,100,0.508970412093011,0.491029587906989,0,-0.683619923771804
47,20230630T094513Z,Kogia-C,2023/06/30,10:11:41.736,1688119901.736,1588.736271,1588.736641,0.271,370,28.619167,-18.691758,562.98,297.8,-5,18.66,1.59,117,373,,,100,-7.28123868989817,120.8,104.48203894266,117.6,5.60000000000001,12.8,112.4,41.4024704885748,2.52357015679759,512,100,0.159298783522422,0.840701216477578,0,-0.252184938404304
48,20230630T094513Z,Kogia-C,2023/06/30,10:11:48.555,1688119908.555,1595.555041,1595.555599,0.041,558,28.619167,-18.691774,562.29,297.88,-5,18.66,1.62,117,236,24,144,92.0443538939224,10.8794975270564,112.8,110.26082189222,109.2,7.2,106.4,13.2,19.6519939023299,5.61066843599761,512,92.0443538939224,0.181507906823741,0.818492093176259,0,1.7700321376588E-16
49,20230630T094513Z,Kogia-C,2023/06/30,10:11:48.760,1688119908.76,1595.760319,1595.76072,0.319,401,28.619167,-18.691775,562.24,297.88,-5,18.67,1.62,117,178,33,123,60.1147347131561,-0.201969021148482,113.2,89.4092536565264,108.4,9.19999999999999,8.4,112.8,45.5777416102423,1.96168679047569,512,60.1147347131561,0.613533223847274,0.386466776152726,0,0.0955834637553917
50,20230630T094513Z,Kogia-C,2023/06/30,10:11:48.928,1688119908.928,1595.928178,1595.928559,0.178,381,28.619167,-18.691775,562.24,297.88,-5,18.67,1.62,117,270,14,151,94.4418375113019,6.76726164377764,114,106.95305049519,110.8,6.40000000000001,107.6,12.4,27.5534675396835,3.88165483495505,512,94.4418375113019,0.126246258197488,0.873753741802512,0,-0.0131390348781654
51,20230630T094513Z,Kogia-C,2023/06/30,10:11:49.092,1688119909.092,1596.092544,1596.093162,0.544,618,28.619167,-18.691777,562.18,297.89,-5,18.67,1.62,117,164,22,105,90.6704487926552,14.2007484992056,115.2,112.814559975727,110,10.4,106,18,16.1868507916471,6.96951874257981,512,90.6704487926552,0.17590767116306,0.82409232883694,0,-2.83681863208111E-16
52,20230630T094513Z,Kogia-A,2023/06/30,10:11:49.243,1688119909.243,1596.243754,1596.244686,0.754,932,28.619167,-18.691777,562.15,297.89,-5,18.67,1.62,117,291,59,207,99.007841311771,21.7240898027889,115.6,116.078033821611,113.2,5.59999999999999,110.8,11.6,6.98644407799861,16.614751728588,512,99.007841311771,0,1,0,-0.00610683569784739
53,20230630T094513Z,Kogia-A,2023/06/30,10:11:49.396,1688119909.396,1596.396407,1596.397496,0.407,1089,28.619167,-18.691777,562.17,297.89,-5,18.67,1.62,117,303,79,233,99.089611317854,23.2743764959113,119.2,118.994248496702,116,6.40000000000001,113.2,11.2,4.58737276919653,25.9395201749744,512,99.089611317854,0,1,0,0.0096097845078619
54,20230630T094513Z,Kogia-A,2023/06/30,10:11:49.554,1688119909.554,1596.554571,1596.555669,0.571,1098,28.619167,-18.691778,562.13,297.89,-5,18.67,1.63,117,213,47,155,98.9232600433375,26.7414735757039,118.4,118.542507459281,114.8,7.60000000000001,111.6,13.6,4.92225966329365,24.0829447384253,512,98.9232600433375,0,1,0,1.34064667124547E-16
55,20230630T094513Z,Kogia-B,2023/06/30,10:11:49.682,1688119909.682,1596.682976,1596.68361,0.976,634,28.619167,-18.691779,562.08,297.9,-5,18.67,1.63,117,211,57,164,97.6826775025843,18.7299917548821,117.6,117.162778792477,113.6,8,110,14.4,8.74633956980472,13.3956357236532,512,97.6826775025843,0.0143562930857903,0.98564370691421,0,0.0196172248803831
56,20230630T094513Z,Kogia-C,2023/06/30,10:11:49.794,1688119909.794,1596.794052,1596.794477,0.052,425,28.619167,-18.691777,562.16,297.89,-5,18.67,1.62,117,229,29,145,82.916326969392,3.8191296663944,116.4,108.691221500356,112.8,7.2,108,14.4,29.1139894836871,3.73329878274694,512,82.916326969392,0.143582889412878,0.856417110587121,0,0.0210318626422065
57,20230630T094513Z,Kogia-C,2023/06/30,10:11:49.929,1688119909.929,1596.92928,1596.929633,0.28,353,28.619167,-18.691778,562.12,297.89,-5,18.67,1.63,117,355,,,100,-7.94733451908155,112,94.1133181952486,109.6,4.80000000000001,9.6,158.4,48.4867822937753,1.9410097709728,512,100,0.418650587623786,0.523241506384222,0.0581079059919921,-0.0736144993096096
58,20230630T094513Z,Kogia-C,2023/06/30,10:11:50.071,1688119910.071,1597.071636,1597.072033,0.636,397,28.619167,-18.691779,562.07,297.9,-5,18.67,1.63,117,240,8,130,82.2755437394795,1.62928259359605,114,82.6465489137505,10.4,110.8,5.6,118.8,49.5981215500504,1.66632417379659,512,82.2755437394795,0.464006585337175,0.535993414662825,0,0.170340477482366
59,20230630T094513Z,Kogia-C,2023/06/30,10:11:50.254,1688119910.254,1597.254315,1597.254698,0.315,383,28.619167,-18.691779,562.09,297.9,-5,18.67,1.63,117,188,42,137,68.2209718696093,-0.086490792409957,115.2,93.2449363398017,110.4,9.59999999999999,7.6,116,42.0208374211857,2.21901661323842,512,68.2209718696093,0.344251808394149,0.655748191605851,0,-0.186445012787724
60,20230630T094513Z,Kogia-C,2023/06/30,10:11:50.427,1688119910.427,1597.427101,1597.427622,0.101,521,28.619167,-18.691779,562.09,297.9,-5,18.67,1.63,117,154,27,105,82.4141539377693,8.84717439610203,114,106.987034888508,108.8,10.4,104.8,18.4,26.3704219671187,4.0570846769881,512,82.4141539377693,0.228083636771925,0.771916363228075,0,-0.0033313851548806
61,20230630T094513Z,Kogia-B,2023/06/30,10:11:52.299,1688119912.299,1599.299371,1599.299996,0.371,625,28.619167,-18.691784,561.86,297.92,-5,18.67,1.64,117,180,24,115,98.0865590898888,18.4693291529169,114.8,113.99547258129,110,8.8,106,16.4,7.73749005968293,14.732874834344,512,98.0865590898888,0.320507983096185,0.679492016903815,0,-6.4027052960958E-17
62,20230630T094513Z,Kogia-B,2023/06/30,10:11:52.453,1688119912.453,1599.453698,1599.454362,0.698,664,28.619167,-18.691785,561.81,297.93,-5,18.67,1.64,117,158,39,119,94.3300051862688,13.8143882767089,115.6,114.178919586276,110.8,9.60000000000001,102.8,21.2,15.0735012916889,7.57481074746922,512,94.3300051862688,0.191085094399614,0.808914905600386,0,0.0307244843997886
63,20230630T094513Z,Kogia-B,2023/06/30,10:11:52.620,1688119912.62,1599.620855,1599.621548,0.855,693,28.619167,-18.691786,561.78,297.93,-5,18.67,1.64,117,262,40,173,98.6228373286133,16.5868674612491,116.4,115.00343721859,112.4,7.19999999999999,108,14,9.68134220549855,11.8788732778471,512,98.6228373286133,0.131439690660077,0.868560309339923,0,0.0232291923496882
64,20230630T094513Z,Kogia-C,2023/06/30,10:11:52.794,1688119912.794,1599.794502,1599.79497,0.502,468,28.619167,-18.691786,561.8,297.93,-5,18.67,1.64,117,219,25,136,84.7059185405009,6.63937249418028,117.2,112.324172583053,113.2,8,110,14.8,24.5629098574907,4.57291799850818,512,84.7059185405009,0.0459426930641912,0.954057306935809,0,0.00501708817498285
65,20230630T094513Z,Kogia-C,2023/06/30,10:11:52.978,1688119912.978,1599.978181,1599.978671,0.181,490,28.619167,-18.691785,561.81,297.93,-5,18.67,1.64,117,223,69,182,75.5820728101376,1.83287960831186,117.2,104.92666056337,113.2,8,109.6,14.8,34.6120273607268,3.03150865650901,512,75.5820728101376,0.114797962098646,0.885202037901354,0,-0.165555014605647
66,20230630T094513Z,Kogia-B,2023/06/30,10:11:54.443,1688119914.443,1601.443199,1601.443867,0.199,668,28.619167,-18.691789,561.66,297.95,-5,18.67,1.65,117,168,45,130,92.5961142609151,15.7010546503924,114,112.873325241288,109.2,10,104.8,18.4,12.5014864169502,9.02879237530091,512,92.5961142609151,0.288773085042105,0.711226914957895,0,-0.00475131981105893
67,20230630T094513Z,Kogia-C,2023/06/30,10:11:54.633,1688119914.633,1601.633275,1601.633707,0.275,432,28.619167,-18.69179,561.63,297.95,-5,18.67,1.65,117,170,39,125,95.6923991206512,15.7288749322152,114,112.80042504486,108.8,10.4,104.4,18.8,13.7459041271763,8.2061117261722,512,95.6923991206512,0.329700474819928,0.670299525180073,0,-0.011558766323979
68,20230630T094513Z,Kogia-C,2023/06/30,10:11:54.836,1688119914.836,1601.836474,1601.836865,0.474,391,28.619167,-18.691791,561.59,297.96,-5,18.67,1.65,117,160,52,133,72.1716334641109,3.91234611260308,114,109.066231884125,108.8,10.4,104.8,18.4,22.9779173289969,4.7465673377843,512,72.1716334641109,0.23054136998877,0.76945863001123,0,0.0250730566919928
69,20230630T094513Z,Kogia-C,2023/06/30,10:11:59.974,1688119919.974,1606.974052,1606.974428,0.052,376,28.619168,-18.691802,561.11,297.9,-5,18.65,1.67,117,189,37,133,74.418908054872,1.83306568874023,116.4,103.027574260146,112,8.40000000000001,10.8,112.8,35.6337877342704,2.89128888089157,512,74.418908054872,0.160039795424224,0.839960204575776,0,-0.0883931877082559
70,20230630T094513Z,Kogia-C,2023/06/30,10:12:00.146,1688119920.146,1607.146619,1607.14708,0.619,461,28.619168,-18.691803,561.04,297.84,-5,18.64,1.68,117,186,35,129,91.2671902345749,10.2371514907226,115.2,114.053624482667,110.8,8.40000000000001,107.2,15.6,11.5134155409238,9.90615027115716,512,91.2671902345749,0.110963793820853,0.889036206179147,0,9.44473184449301E-17
71,20230630T094513Z,Kogia-C,2023/06/30,10:12:00.306,1688119920.306,1607.306933,1607.307219,0.933,286,28.619169,-18.691804,561,297.79,-5,18.63,1.68,117,152,9,86,80.4320247826747,3.64835903725648,115.2,105.577668199221,109.6,11.2,18,106.8,32.7756649796213,3.22122124035821,512,80.4320247826747,0.405120910073218,0.594879089926782,0,-0.0499246362545756
72,20230630T094513Z,Kogia-C,2023/06/30,10:12:00.450,1688119920.45,1607.450359,1607.450751,0.359,392,28.619168,-18.691803,561.04,297.83,-5,18.64,1.68,117,395,,,100,-3.94716996574556,116,80.6823701189505,113.6,5.2,10.4,111.2,50.8364960818245,1.58709542036664,512,100,0.428280635796004,0.571719364203996,0,-0.137849599122184
73,20230630T094513Z,Kogia-C,2023/06/30,10:12:00.753,1688119920.753,1607.753438,1607.753876,0.438,438,28.619168,-18.691804,561,297.8,-5,18.63,1.68,117,180,24,115,80.5463036715557,5.2987145237488,117.6,112.874932874319,113.6,8.40000000000001,110,15.2,22.8265322509304,4.9449005934626,512,80.5463036715557,0.0744023394835786,0.925597660516421,0,-2.33364616700563E-16
74,20230630T094513Z,Kogia-B,2023/06/30,10:12:00.905,1688119920.905,1607.905979,1607.906793,0.979,814,28.619169,-18.691805,560.94,297.73,-5,18.62,1.68,117,188,53,148,97.9085345031655,22.191448037666,117.2,116.825452469574,113.2,8.39999999999999,109.6,15.6,8.76996407526539,13.321086776064,512,97.9085345031655,0.026397218583368,0.973602781416632,0,-7.43451955013593E-17
75,20230630T094513Z,Kogia-B,2023/06/30,10:12:01.048,1688119921.048,1608.048006,1608.049236,0.006,1230,28.619168,-18.691803,561.02,297.81,-5,18.63,1.68,117,223,70,183,98.9184198779503,26.773663308329,117.6,117.683819284434,114,7.59999999999999,110.8,13.6,5.41516408752261,21.7322720756691,512,98.9184198779503,0.0128344393787178,0.987165560621282,0,-2.50907619584272E-17
76,20230630T094513Z,Kogia-B,2023/06/30,10:12:01.195,1688119921.195,1608.19532,1608.19609,0.32,770,28.619169,-18.691804,560.97,297.77,-5,18.62,1.68,117,201,22,124,98.9532988160207,25.016017441579,116,116.062762054833,112,8,108.4,15.2,4.65848413504303,24.9142765522719,512,98.9532988160207,0.126478882206136,0.873521117793864,0,6.68837516862587E-17
77,20230630T094513Z,Kogia-C,2023/06/30,10:12:02.115,1688119922.115,1609.115716,1609.116158,0.716,442,28.61917,-18.691806,560.86,297.64,-5,18.6,1.68,117,256,27,157,87.6383455849226,6.86883015633445,114,111.111725378666,110,8.8,106.8,15.6,19.3009534009843,5.75679983627127,512,87.6383455849226,0.213626243417027,0.786373756582973,0,0.000920132499079631
78,20230630T094513Z,Kogia-C,2023/06/30,10:12:02.254,1688119922.254,1609.254934,1609.255217,0.934,283,28.61917,-18.691807,560.82,297.61,-5,18.59,1.68,117,189,35,131,95.3813049433509,7.12899886474336,114.8,106.08958314936,110.4,8.39999999999999,107.2,15.2,30.8122084516546,3.44310221436475,512,95.3813049433509,0.193600797454591,0.806399202545409,0,2.67595119954147E-16
79,20230630T094513Z,Kogia-C,2023/06/30,10:12:04.908,1688119924.908,1611.908825,1611.9095,0.825,675,28.619172,-18.691811,560.59,297.37,-5,18.54,1.69,117,164,83,166,62.5098122259769,6.07475693857857,117.6,114.143225586202,109.6,16,102.4,33.6,25.8122634756794,4.42205410206468,512,62.5098122259769,0.171578718927961,0.828421281072039,0,-0.117918552036199
80,20230630T094513Z,Kogia-C,2023/06/30,10:12:05.091,1688119925.091,1612.091254,1612.091642,0.254,388,28.619172,-18.691811,560.63,297.41,-5,18.55,1.69,117,195,40,139,95.882220073273,12.8105388200641,115.2,112.76307796685,110.8,8.8,107.2,15.6,16.6865265538624,6.75773221004758,512,95.882220073273,0.153802838944064,0.846197161055936,0,1.15238447696612E-16
81,20230630T094513Z,Kogia-C,2023/06/30,10:12:05.286,1688119925.286,1612.286634,1612.287104,0.634,470,28.619172,-18.691812,560.58,297.36,-5,18.54,1.69,117,203,74,177,81.619334437696,2.80046671594833,116.8,109.368339593401,113.6,6.80000000000001,111.2,12,29.4686052841497,3.71135106459304,512,81.619334437696,0.081720076710814,0.918279923289186,0,-0.000313860483952497
82,20230630T094513Z,Kogia-C,2023/06/30,10:12:05.486,1688119925.486,1612.486984,1612.487397,0.984,413,28.619173,-18.691812,560.53,297.31,-5,18.53,1.7,117,248,46,172,90.3003921789277,4.97425265794248,117.6,111.754789444324,114.4,6.8,111.2,12.8,26.0483018969347,4.29029077928012,512,90.3003921789277,0.0238920069641854,0.976107993035815,0,0.0147581980204997
83,20230630T094513Z,Kogia-C,2023/06/30,10:12:05.907,1688119925.907,1612.907864,1612.908237,0.864,373,28.619173,-18.691813,560.5,297.28,-5,18.52,1.7,117,160,44,125,66.477095686005,0.957958911874153,118,116.028869205912,113.2,9.2,109.2,16.8,23.0474899718787,5.03433863503073,512,66.477095686005,0.0314780630027409,0.968521936997259,0,0.00369623655914004
84,20230630T094513Z,Kogia-C,2023/06/30,10:12:06.104,1688119926.104,1613.104302,1613.104702,0.302,400,28.619173,-18.691812,560.53,297.31,-5,18.53,1.7,117,332,28,197,93.5136295867872,0.780934934098921,117.2,99.9469185796458,114.4,6,22.4,100,40.9273502423281,2.4420569127458,512,93.5136295867872,0.170546448839728,0.829453551160272,0,-0.218352269199727
85,20230630T094513Z,Kogia-C,2023/06/30,10:12:06.279,1688119926.279,1613.279581,1613.279951,0.581,370,28.619173,-18.691813,560.49,297.27,-5,18.52,1.7,117,188,32,127,92.0219330484947,9.4468605663154,114.4,111.014887363388,110,9.2,106.4,16.4,18.957649214877,5.85594163627996,512,92.0219330484947,0.15271694164356,0.84728305835644,0,-2.38791700809879E-16
86,20230630T094513Z,Kogia-B,2023/06/30,10:12:06.452,1688119926.452,1613.452613,1613.453376,0.613,763,28.619173,-18.691813,560.47,297.25,-5,18.52,1.7,117,219,33,144,98.1615958878639,22.14363803591,114.4,114.363318650809,110.4,8.39999999999999,106.4,15.6,5.9188169451551,19.321989463523,512,98.1615958878639,0.165815720079883,0.834184279920117,0,-0.00414661236579032
87,20230630T094513Z,Kogia-A,2023/06/30,10:12:06.631,1688119926.631,1613.631308,1613.632601,0.308,1293,28.619173,-18.691813,560.49,297.26,-5,18.52,1.7,117,219,85,196,99.4504893740671,29.6755260921619,114,113.872383596768,110,8,106.4,14.8,4.44395626667797,25.6241008604462,512,99.4504893740671,0.196997190654677,0.803002809345323,0,1.19558735051018E-16
88,20230630T094513Z,Kogia-A,2023/06/30,10:12:06.799,1688119926.799,1613.799321,1613.80087,0.321,1549,28.619173,-18.691814,560.47,297.24,-5,18.52,1.7,117,227,141,256,99.5857115576141,30.9052461263682,113.6,113.735944589428,110,7.59999999999999,106,14.8,4.01088616001015,28.3568119492926,512,99.5857115576141,0.256373083141988,0.743626916858013,0,0.00766796494644594
89,20230630T094513Z,Kogia-A,2023/06/30,10:12:06.963,1688119926.963,1613.963926,1613.965458,0.926,1532,28.619174,-18.691815,560.4,297.17,-5,18.5,1.7,117,199,135,236,99.5132335734445,31.996497005308,114,113.761820331086,109.2,9.2,105.2,16.8,4.20601365552019,27.0474205859459,512,99.5132335734445,0.295450129955093,0.704549870044907,0,-2.59561969431152E-16
90,20230630T094513Z,Kogia-A,2023/06/30,10:12:07.135,1688119927.135,1614.135585,1614.136973,0.585,1388,28.619174,-18.691815,560.42,297.19,-5,18.5,1.7,117,207,65,170,97.6540754812783,22.5679630132031,112.8,114.396312781607,108.8,8,105.2,14.8,10.5135429198451,10.880852787092,512,97.6540754812783,0.443136132769365,0.556863867230635,0,2.16208656605998E-16
91,20230630T094513Z,Kogia-A,2023/06/30,10:12:07.305,1688119927.305,1614.305123,1614.306596,0.123,1473,28.619174,-18.691814,560.44,297.22,-5,18.51,1.7,117,199,202,303,95.9690529015477,22.9507464111558,113.6,113.538473684856,108.8,9.60000000000001,104.8,17.2,5.72626019172522,19.8276833191977,512,95.9690529015477,0.321727162791544,0.678272837208456,0,0.0105754649213824
92,20230630T094513Z,Kogia-A,2023/06/30,10:12:07.474,1688119927.474,1614.474598,1614.475237,0.598,639,28.619174,-18.691815,560.38,297.16,-5,18.5,1.7,117,193,26,124,98.2616046179897,21.3407377816912,113.2,112.89100612474,108.8,8.8,105.2,15.6,6.36171594321935,17.7453704523014,512,98.2616046179897,0.323415015433458,0.676584984566542,0,3.68280945966243E-17
93,20230630T094513Z,Kogia-B,2023/06/30,10:12:07.653,1688119927.653,1614.653776,1614.654411,0.776,635,28.619175,-18.691816,560.35,297.12,-5,18.49,1.7,117,221,8,120,93.043429500467,14.2830226556201,113.6,113.790258115675,109.2,8.39999999999999,105.6,16,12.9338840720869,8.7978411961531,512,93.043429500467,0.268175715895801,0.731824284104199,0,0.0203628285820071
94,20230630T094513Z,Kogia-C,2023/06/30,10:12:07.838,1688119927.838,1614.838208,1614.838636,0.208,428,28.619174,-18.691815,560.39,297.16,-5,18.5,1.7,117,227,17,132,88.4198478552919,6.76416716674522,116,112.880876493901,112,8.40000000000001,108.4,32.4,27.4840432446229,4.10714229668468,512,88.4198478552919,0.117215586603879,0.882784413396121,0,-0.0495735219071223
95,20230630T094513Z,Kogia-C,2023/06/30,10:12:08.031,1688119928.031,1615.031788,1615.03221,0.788,422,28.619175,-18.691816,560.32,297.09,-5,18.48,1.7,117,197,28,128,88.0216805441848,7.98696534114218,116.8,111.441483080854,112.4,8.8,108.4,16.4,25.3919363383338,4.38885327987424,512,88.0216805441848,0.11622914271248,0.88377085728752,0,-0.0293762575452717
96,20230630T094513Z,Kogia-C,2023/06/30,10:12:08.465,1688119928.465,1615.465613,1615.465917,0.613,304,28.619175,-18.691817,560.29,297.06,-5,18.48,1.71,117,307,,,100,-6.53390500126687,120.4,90.6062855805187,118,5.59999999999999,11.2,117.6,52.5392439963692,1.72454490564768,512,100,0.380105069378638,0.619894930621362,0,-0.0778536585365854
97,20230630T094513Z,Kogia-C,2023/06/30,10:12:08.493,1688119928.493,1615.493813,1615.494315,0.813,502,28.619175,-18.691817,560.27,297.04,-5,18.47,1.71,117,150,43,119,59.7355582154786,2.28809497595476,121.6,113.058542068526,116.4,10,112.4,18,29.8583866520817,3.78649199589771,512,59.7355582154786,0.0160106526470264,0.983989347352974,0,-0.00929281122150799
98,20230630T094513Z,Kogia-C,2023/06/30,10:12:08.522,1688119928.522,1615.522315,1615.522837,0.315,522,28.619175,-18.691816,560.31,297.09,-5,18.48,1.7,117,148,59,134,74.6358546970941,6.72889721693276,122.8,114.228422420015,117.2,10.8,113.2,18.8,29.9126198807303,3.81873680324474,512,74.6358546970941,0.0574291179931988,0.942570882006801,0,-0.0249546279491834
99,20230630T094513Z,Kogia-C,2023/06/30,10:12:08.551,1688119928.551,1615.551314,1615.551716,0.314,402,28.619175,-18.691816,560.31,297.08,-5,18.48,1.7,117,248,11,137,91.5803156971184,6.969824212392,122.4,119.921156278844,118.8,7.2,116,14.8,20.3223658262273,5.90094466875891,512,91.5803156971184,0,1,0,-0.0412067333415648
100,20230630T094513Z,Kogia-C,2023/06/30,10:12:08.581,1688119928.581,1615.581138,1615.581495,0.138,357,28.619175,-18.691816,560.33,297.1,-5,18.49,1.7,117,318,18,180,98.9951533702785,8.26890715979715,122,109.802761998852,119.2,5.2,117.2,9.2,35.7871820656689,3.06821480935173,512,98.9951533702785,0.102263814664129,0.897736185335871,0,-0.146734694551931
101,20230630T094513Z,Kogia-C,2023/06/30,10:12:08.612,1688119928.612,1615.612686,1615.613077,0.686,391,28.619175,-18.691817,560.27,297.04,-5,18.47,1.71,117,172,37,124,78.2451161678428,3.29040148000231,122,120.929543570563,117.6,8.80000000000001,114.4,15.6,13.337756183502,9.06670821589511,512,78.2451161678428,0,1,0,-0.00601213879451857
102,20230630T094513Z,Kogia-C,2023/06/30,10:12:08.645,1688119928.645,1615.645956,1615.646445,0.956,489,28.619176,-18.691818,560.25,297.01,-5,18.47,1.71,117,268,32,168,89.6016889414654,7.65163446027606,122.8,117.157420096594,119.2,6.8,116.8,12.8,25.481799376324,4.59769023240364,512,89.6016889414654,0,1,0,-0.0198605642452047
103,20230630T094513Z,Kogia-C,2023/06/30,10:12:08.679,1688119928.679,1615.679976,1615.680504,0.976,528,28.619176,-18.691818,560.24,297.01,-5,18.47,1.71,117,285,53,198,93.2794061210896,8.35766916463878,122,114.763237975258,119.2,5.59999999999999,116.8,10.4,28.3166185947921,4.0528581331517,512,93.2794061210896,0.0408585434506037,0.959141456549396,0,-0.0199455318481948
104,20230630T094513Z,Kogia-C,2023/06/30,10:12:08.715,1688119928.715,1615.715082,1615.715485,0.082,403,28.619175,-18.691816,560.32,297.09,-5,18.48,1.7,117,297,31,182,96.1055650257699,6.94893172328573,121.6,117.605616250465,118.8,5.60000000000001,116.8,11.2,22.0682629968123,5.32917412971982,512,96.1055650257699,0,1,0,-0.0197728810006954
105,20230630T094513Z,Kogia-C,2023/06/30,10:12:08.751,1688119928.751,1615.751858,1615.752255,0.858,397,28.619176,-18.691818,560.25,297.01,-5,18.47,1.71,117,240,20,142,97.1816551894365,12.9430900138816,122,121.02260313322,118.4,7.19999999999999,115.6,13.6,13.1783764287137,9.1834228433125,512,97.1816551894365,0,1,0,-0.0163026557856498
106,20230630T094513Z,Kogia-C,2023/06/30,10:12:08.790,1688119928.79,1615.790965,1615.79171,0.965,745,28.619176,-18.691818,560.23,297,-5,18.47,1.71,117,240,69,191,91.6757398214097,11.3614960787088,121.2,119.158564778564,118.4,6,115.6,12,17.9127615620239,6.6521604927287,512,91.6757398214097,0,1,0,-0.0241860881501594
107,20230630T094513Z,Kogia-C,2023/06/30,10:12:08.831,1688119928.831,1615.83173,1615.832321,0.73,591,28.619175,-18.691818,560.25,297.02,-5,18.47,1.71,117,262,79,212,92.5738932353394,9.27284174359425,121.6,115.390298720415,118.4,6,116,10.8,26.4607277766222,4.36081349290632,512,92.5738932353394,0.0344541623290062,0.965545837670994,0,-0.0181712288875949
108,20230630T094513Z,Kogia-C,2023/06/30,10:12:08.873,1688119928.873,1615.873247,1615.873762,0.247,515,28.619175,-18.691817,560.29,297.06,-5,18.48,1.71,117,238,57,178,90.4474227835764,9.24352448908345,121.6,121.689411619958,118.4,6.8,115.6,14.4,11.1946534228506,10.8703152320522,512,90.4474227835764,0,1,0,-0.0209302325581391
109,20230630T094513Z,Kogia-C,2023/06/30,10:12:08.914,1688119928.914,1615.914478,1615.914923,0.478,445,28.619175,-18.691817,560.26,297.03,-5,18.47,1.71,117,234,38,157,94.1170977406523,8.98916907807508,121.2,119.098354791432,118,6.40000000000001,114.8,14.4,17.9060721663151,6.65128307789802,512,94.1170977406523,0,1,0,-0.027535134373569
110,20230630T094513Z,Kogia-C,2023/06/30,10:12:08.955,1688119928.955,1615.955443,1615.956427,0.443,984,28.619175,-18.691817,560.26,297.03,-5,18.47,1.71,117,230,129,246,90.5307866465177,12.5961759498475,121.2,120.657723522409,118,6.8,115.2,14.4,13.5079502620972,8.93234881542094,512,90.5307866465177,0,1,0,-0.0246227309178391
111,20230630T094513Z,Kogia-C,2023/06/30,10:12:08.998,1688119928.998,1615.998027,1615.99846,0.027,433,28.619175,-18.691817,560.3,297.07,-5,18.48,1.71,117,199,30,131,97.741040626168,15.7165976962045,121.6,120.40554553406,117.6,8,114.8,15.6,14.760391966483,8.15734065920943,512,97.741040626168,0,1,0,-0.0199146514935988
112,20230630T094513Z,Kogia-C,2023/06/30,10:12:09.042,1688119929.042,1616.042334,1616.042846,0.334,512,28.619175,-18.691817,560.27,297.04,-5,18.47,1.71,117,254,21,150,94.9087545149714,10.2648572763376,121.2,121.138469459827,118.4,6,115.6,12.8,10.8324784047254,11.1828950803155,512,94.9087545149714,0,1,0,-0.0236968536647038
113,20230630T094513Z,Kogia-B,2023/06/30,10:12:20.499,1688119940.499,1627.499428,1627.499974,0.428,546,28.619183,-18.691838,559.23,296.01,-5,18.33,1.92,117,248,26,152,97.5690053649561,17.0915417386736,118,116.001050001968,114.8,6.8,111.6,12.8,15.1156449785569,7.67423753114918,512,97.5690053649561,0,1,0,-8.44083828153374E-17
114,20230630T094513Z,Kogia-B,2023/06/30,10:12:20.692,1688119940.692,1627.692928,1627.693641,0.928,713,28.619183,-18.69184,559.16,295.97,-5,18.34,1.98,117,213,22,130,96.4947187875381,18.2760365747496,116.8,116.288976192976,112.8,8,109.2,14.8,9.78205549505148,11.8879898250223,512,96.4947187875381,0.0286298001755506,0.971370199824449,0,-0.00102529049897457
115,20230630T094513Z,Kogia-C,2023/06/30,10:12:21.025,1688119941.025,1628.025045,1628.025708,0.045,663,28.619183,-18.691839,559.21,296.01,-5,18.33,1.93,117,170,29,115,67.2032905212109,6.05833672245469,114.8,108.397670285097,109.6,10,105.2,18.4,26.6022791463556,4.07475125303116,512,67.2032905212109,0.27177882966144,0.72822117033856,0,-0.0216449013614897
116,20230630T094513Z,Kogia-C,2023/06/30,10:12:21.839,1688119941.839,1628.839642,1628.840123,0.642,481,28.619183,-18.691842,559.09,295.91,-5,18.36,2.06,117,164,53,136,82.6803266871108,8.40841769411457,114,109.048897016153,108.8,10,104.8,17.6,22.3795100256604,4.8727115513752,512,82.6803266871108,0.28461512432791,0.71538487567209,0,0.0115587663239785
117,20230630T094513Z,Kogia-C,2023/06/30,10:12:22.003,1688119942.003,1629.00397,1629.004383,0.97,413,28.619183,-18.691843,559.04,295.88,-5,18.37,2.1,117,227,19,134,96.8623566048462,14.5405662443123,116,115.297832275268,111.6,8.80000000000001,108,15.6,10.5195755604519,10.9603121925115,512,96.8623566048462,0.102665411485531,0.89733458851447,0,-0.00896159317211925
118,20230630T094513Z,Kogia-C,2023/06/30,10:12:22.161,1688119942.161,1629.16116,1629.16154,0.16,380,28.619183,-18.691842,559.1,295.92,-5,18.35,2.04,117,283,11,155,97.874881327811,12.5083569353527,118,114.556338815981,114.4,6.8,111.6,12.4,18.9519165823949,6.04457804137848,512,97.874881327811,0.0127239520479583,0.987276047952042,0,-0.0014174231565532
119,20230630T094513Z,Kogia-C,2023/06/30,10:12:29.393,1688119949.393,1636.393899,1636.394248,0.899,349,28.619183,-18.691862,558.38,295.41,-5,18.5,2.77,117,205,23,127,94.1191792857689,10.1586109178236,114,114.337601443361,109.2,10,105.6,19.2,16.7938302010976,6.8083099611123,512,94.1191792857689,0.293393086159805,0.706606913840195,0,-0.00913461538461528
120,20230630T094513Z,Kogia-C,2023/06/30,10:12:29.601,1688119949.601,1636.601128,1636.601523,0.128,395,28.619183,-18.69186,558.43,295.44,-5,18.49,2.72,117,189,42,138,95.392836603774,13.6472728705354,112.4,113.196973323298,107.2,10,102.8,18.4,13.7637661832349,8.22427319792591,512,95.392836603774,0.383393508857997,0.616606491142003,0,-0.0258428139025158
121,20230630T094513Z,Kogia-C,2023/06/30,10:12:29.809,1688119949.809,1636.80935,1636.80973,0.35,380,28.619183,-18.691861,558.4,295.41,-5,18.5,2.76,117,162,54,136,86.271365737732,5.17989324367862,110.4,104.799888250543,104.8,10.8,100,20.4,25.6476699626312,4.08613680709541,512,86.271365737732,0.588153874667976,0.411846125332024,0,-0.0445317840054686
122,20230630T094513Z,Kogia-C,2023/06/30,10:12:30.028,1688119950.028,1637.028137,1637.028877,0.137,740,28.619183,-18.691861,558.4,295.41,-5,18.5,2.76,117,297,50,201,77.3070592720425,5.88032294735418,112.4,109.961776304181,108.4,7.59999999999999,105.2,35.6,28.8076922739383,3.81709771329588,512,77.3070592720425,0.285564907369679,0.714435092630321,0,0.00179964962573677
123,20230630T094513Z,Kogia-B,2023/06/30,10:12:55.891,1688119975.891,1662.891471,1662.892288,0.471,817,28.619183,-18.691912,555.86,295.33,-5,18.51,3.56,117,166,39,123,96.4830485929227,21.593704393197,118,119.413206197918,112.4,11.6,107.2,30,10.9850456389847,10.8705243585091,512,96.4830485929227,0.083387068805681,0.916612931194319,0,-0.0674641148325361
124,20230630T094513Z,Kogia-A,2023/06/30,10:12:56.116,1688119976.116,1663.11609,1663.117031,0.09,941,28.619183,-18.691912,555.88,295.33,-5,18.52,3.56,117,197,45,145,99.3623815774325,27.2392943408262,117.6,117.927025178784,113.6,8.40000000000001,110,15.2,4.72944420914003,24.9346477014954,512,99.3623815774325,0.0349413623457272,0.965058637654273,0,2.51725962185956E-16
125,20230630T094513Z,Kogia-A,2023/06/30,10:12:56.354,1688119976.354,1663.354659,1663.356398,0.659,1739,28.619183,-18.691913,555.8,295.35,-5,18.51,3.56,117,301,231,384,99.5297711466615,28.4490486149611,121.2,121.191156363984,118,5.59999999999999,114.8,11.2,4.86926809302936,24.8889882521515,512,99.5297711466615,0,1,0,0.0138909634055263
126,20230630T094513Z,Kogia-B,2023/06/30,10:12:56.594,1688119976.594,1663.594287,1663.595235,0.287,948,28.619183,-18.691913,555.81,295.35,-5,18.51,3.56,117,334,40,210,98.9880404595687,21.8667230859871,122.4,122.11021546658,119.6,5.2,117.2,10,5.47700110936037,22.2950868601961,512,98.9880404595687,0,1,0,7.57057264154952E-17
127,20230630T094513Z,Kogia-B,2023/06/30,10:12:57.255,1688119977.255,1664.255067,1664.255645,0.067,578,28.619183,-18.691914,555.77,295.36,-5,18.51,3.56,117,246,57,182,97.8694811272004,18.4152475480186,116.8,117.533349926262,113.2,7.2,110.4,13.2,8.17194831688051,14.3825371097217,512,97.8694811272004,0.0125735254787689,0.987426474521231,0,-0.0160856644181327
128,20230630T094513Z,Kogia-B,2023/06/30,10:12:57.456,1688119977.456,1664.456074,1664.456806,0.074,732,28.619183,-18.691914,555.75,295.37,-5,18.5,3.56,117,223,51,164,98.32837617821,20.4837646365448,114.4,115.54811684582,110.8,7.60000000000001,107.2,14.4,7.27298966221349,15.8872928757407,512,98.32837617821,0.150199077838378,0.849800922161623,0,1.34064667124547E-16
129,20230630T094513Z,Kogia-B,2023/06/30,10:12:57.646,1688119977.646,1664.646885,1664.647563,0.885,678,28.619183,-18.691916,555.65,295.4,-5,18.49,3.56,117,221,44,156,97.9601192973815,20.5766267566408,116,116.661499813946,112.4,7.59999999999999,109.2,14,6.6204920513395,17.6212732995189,512,97.9601192973815,0.0641324115308944,0.935867588469106,0,-0.0027750730282373
130,20230630T094513Z,Kogia-A,2023/06/30,10:13:28.810,1688120008.81,1695.810734,1695.811616,0.734,882,28.6192,-18.691984,552.7,297.19,-5,18.49,3.56,117,246,8,133,99.2524402821031,14.8623363323248,120.4,122.109617028629,117.2,6.8,108,30.4,10.3931078652109,11.7490955171714,512,99.2524402821031,0.101626085462884,0.898373914537116,0,-0.00382734580142374
131,20230630T094513Z,Kogia-A,2023/06/30,10:13:28.926,1688120008.926,1695.926947,1695.927962,0.947,1015,28.6192,-18.691985,552.67,297.22,-5,18.49,3.56,117,248,7,133,99.3159444267996,16.2500847536685,120.4,123.456273676237,110.4,13.6,108,32.4,11.6287514630749,10.6164685063784,512,99.3159444267996,0.098011200817415,0.901988799182585,0,-0.023629316654468
132,20230630T094513Z,Kogia-A,2023/06/30,10:13:29.054,1688120009.054,1696.054168,1696.05549,0.168,1322,28.6192,-18.691984,552.73,297.17,-5,18.49,3.56,117,76,11,49,96.6683920627567,29.1542937356812,123.2,122.646789667794,110.4,24.8,100,44.8,10.6686167396662,11.4960348338121,512,96.6683920627567,0.145075457734128,0.854924542265872,0,-6.69040390916286E-16
133,20230630T094513Z,Kogia-A,2023/06/30,10:13:29.188,1688120009.188,1696.188438,1696.189736,0.438,1298,28.6192,-18.691984,552.69,297.2,-5,18.49,3.56,117,74,8,45,96.1078275966148,28.1811436700221,122.4,122.141828842703,110,24.8,99.6,44.4,10.5427946179208,11.5853370258285,512,96.1078275966148,0.13640816825227,0.86359183174773,0,-4.16961890153645E-17
134,20230630T094513Z,Kogia-A,2023/06/30,10:13:29.318,1688120009.318,1696.318311,1696.319609,0.311,1298,28.6192,-18.691984,552.69,297.2,-5,18.49,3.56,117,248,12,138,99.4116505137591,18.9975017616908,120.4,124.555162749612,117.2,20,108,32.4,13.0714504627086,9.52879430671859,512,99.4116505137591,0.0700740231609888,0.929925976839011,0,-0.0183960813601021
135,20230630T094513Z,Kogia-A,2023/06/30,10:13:29.438,1688120009.438,1696.438256,1696.439464,0.256,1208,28.6192,-18.691984,552.68,297.2,-5,18.49,3.56,117,248,7,133,99.2569917594278,17.0235691627719,121.6,123.4128721753,109.6,27.2,107.6,34,12.5819134951048,9.80875223973808,512,99.2569917594278,0.122242497732686,0.877757502267314,0,-0.0265527227071141
136,20230630T094513Z,Kogia-A,2023/06/30,10:13:29.553,1688120009.553,1696.553889,1696.55511,0.889,1221,28.6192,-18.691986,552.61,297.26,-5,18.49,3.56,117,248,16,142,99.3399416929435,18.5277547915044,120.4,123.609842981303,117.2,19.2,108,32.4,11.5838594581958,10.6708686709632,512,99.3399416929435,0.0895796127005263,0.910420387299474,0,-0.0206766917293233
137,20230630T094513Z,Kogia-A,2023/06/30,10:13:29.665,1688120009.665,1696.665799,1696.667046,0.799,1247,28.6192,-18.691986,552.61,297.26,-5,18.49,3.56,117,248,10,136,99.303137051701,17.8740730368883,121.2,123.7104329768,117.6,6.80000000000001,108,33.2,12.0081285108487,10.3022242695882,512,99.303137051701,0.0956406945029208,0.904359305497079,0,-0.0239406612483233
138,20230630T094513Z,Kogia-A,2023/06/30,10:13:29.772,1688120009.772,1696.772691,1696.773899,0.691,1208,28.6192,-18.691986,552.61,297.26,-5,18.49,3.56,117,246,11,136,99.4567564599255,19.0980192980256,120.8,125.398301193968,117.2,20.8,108.4,32.8,12.2830101502006,10.2090855303836,512,99.4567564599255,0.0487282190391063,0.951271780960894,0,-0.0104368083867216
139,20230630T094513Z,Kogia-A,2023/06/30,10:13:29.879,1688120009.879,1696.879647,1696.881063,0.647,1416,28.6192,-18.691986,552.61,297.26,-5,18.49,3.56,117,246,25,150,99.417140698588,19.3630628645535,120.8,125.155053173348,117.2,21.2,108,34,12.7826378526934,9.79101924153916,512,99.417140698588,0.0606015269179036,0.939398473082096,0,-0.0311688311688312
140,20230630T094513Z,Kogia-A,2023/06/30,10:13:29.984,1688120009.984,1696.98486,1696.986375,0.86,1515,28.6192,-18.691986,552.57,297.29,-5,18.49,3.57,117,246,33,158,99.4234007325725,20.3265783179177,121.2,125.235320302754,117.2,21.2,108,33.2,12.3015347036539,10.1804631145377,512,99.4234007325725,0.0602465887742237,0.939753411225777,0,-0.008928963669112
141,20230630T094513Z,Kogia-A,2023/06/30,10:13:30.091,1688120010.091,1697.091802,1697.093099,0.802,1297,28.6192,-18.691986,552.57,297.29,-5,18.49,3.57,117,246,38,163,99.3926367120076,19.0095750010728,120.4,124.95009598046,117.2,20.8,108,33.2,12.4252696441007,10.0561275175049,512,99.3926367120076,0.0710262876781604,0.92897371232184,0,-0.0264589811049989
142,20230630T094513Z,Kogia-A,2023/06/30,10:13:30.200,1688120010.2,1697.200865,1697.202038,0.865,1173,28.6192,-18.691987,552.55,297.3,-5,18.49,3.57,117,244,31,155,99.3269178026848,17.9329644501478,120.4,123.848066586863,117.2,20.4,108,32.8,11.9464950655951,10.3668955544572,512,99.3269178026848,0.0956746445781059,0.904325355421894,0,-0.0251400615481733
143,20230630T094513Z,Kogia-A,2023/06/30,10:13:30.320,1688120010.32,1697.320414,1697.322094,0.414,1680,28.6192,-18.691986,552.59,297.28,-5,18.49,3.57,117,246,50,175,99.3915879348598,20.8096592555896,120.4,125.535881639587,117.2,21.2,108,32.8,12.1799650269041,10.3067522248458,512,99.3915879348598,0.063971289557321,0.936028710442679,0,-0.021599080314677
144,20230630T094513Z,Kogia-A,2023/06/30,10:13:30.451,1688120010.451,1697.451111,1697.452521,0.111,1410,28.6192,-18.691986,552.6,297.27,-5,18.49,3.56,117,176,74,163,98.4253214380726,21.0097675489391,135.2,126.396439452525,116.8,22.8,106,37.6,12.375750353518,10.2132344174666,512,98.4253214380726,0.0739425391450421,0.926057460854958,0,0.0706378592968661
145,20230630T094513Z,Kogia-A,2023/06/30,10:13:30.581,1688120010.581,1697.581034,1697.582548,0.034,1514,28.6192,-18.691986,552.6,297.27,-5,18.49,3.56,117,176,34,123,98.4248997171564,20.8948349299419,120.8,126.308092412373,116.8,22.8,106,38,12.547512821579,10.0663848053736,512,98.4248997171564,0.0691455376369364,0.930854462363064,0,0.0926208120237971
146,20230630T094513Z,Kogia-A,2023/06/30,10:13:30.703,1688120010.703,1697.703448,1697.705189,0.448,1741,28.6192,-18.691987,552.55,297.31,-5,18.49,3.57,117,246,55,180,99.4267848045625,21.2447435125723,120.4,125.379406744841,117.2,21.2,108.4,32.8,13.1271130751826,9.55117900080228,512,99.4267848045625,0.055779775152572,0.944220224847428,0,-0.0214052250749501
147,20230630T094513Z,Kogia-A,2023/06/30,10:13:30.819,1688120010.819,1697.819947,1697.821137,0.947,1190,28.6192,-18.691988,552.49,297.35,-5,18.48,3.57,117,178,23,113,98.410371338861,19.8559949314074,120.8,125.467956604843,116.8,21.6,106,37.2,11.690559646587,10.7324166162971,512,98.410371338861,0.0844016782803459,0.915598321719654,0,0.0293718572910845
148,20230630T094513Z,Kogia-A,2023/06/30,10:13:30.931,1688120010.931,1697.931825,1697.933012,0.825,1187,28.6192,-18.691988,552.49,297.35,-5,18.48,3.57,117,178,30,120,98.3682168487289,19.5965887820359,120.8,125.330854878119,117.2,21.2,106,36.8,11.7348112650741,10.680261663103,512,98.3682168487289,0.0866677766666144,0.913332223333385,0,0.033442413600447
149,20230630T094513Z,Kogia-A,2023/06/30,10:13:31.039,1688120011.039,1698.039204,1698.040886,0.204,1682,28.6192,-18.691987,552.54,297.31,-5,18.49,3.57,117,248,89,215,99.4604181647962,21.0939867339536,120.4,125.268647618461,117.2,20.8,108.4,32.4,11.6856431247646,10.7198762003083,512,99.4604181647962,0.0520875406648947,0.947912459335106,0,-0.0212091962091962
150,20230630T094513Z,Kogia-A,2023/06/30,10:13:31.155,1688120011.155,1698.155792,1698.15734,0.792,1548,28.6192,-18.691988,552.47,297.36,-5,18.48,3.57,117,248,45,171,99.496708244797,21.097978524516,120.4,124.66879264358,117.2,19.2,108.8,31.2,11.8852451848711,10.4893749101846,512,99.496708244797,0.0468471873918945,0.953152812608105,0,-0.00956967427858289
151,20230630T094513Z,Kogia-A,2023/06/30,10:13:31.308,1688120011.308,1698.308288,1698.309954,0.288,1666,28.6192,-18.691988,552.5,297.34,-5,18.48,3.57,117,174,39,127,98.5990960408788,22.6388557941777,120.8,125.008125431853,116.8,8,109.2,33.2,11.0771565793556,11.2852178748498,512,98.5990960408788,0.0372232302635435,0.962776769736457,0,-0.0272664835164835
152,20230630T094513Z,Kogia-A,2023/06/30,10:13:31.587,1688120011.587,1698.587138,1698.588624,0.138,1486,28.6192,-18.691988,552.49,297.35,-5,18.48,3.57,117,305,30,185,99.7433782689677,22.6953942239938,123.2,123.566460070679,120.8,4.40000000000001,115.6,15.2,8.330742935043,14.8325858850956,512,99.7433782689677,0.0267131743892786,0.973286825610721,0,0.00779104101812877
153,20230630T094513Z,Kogia-A,2023/06/30,10:13:31.828,1688120011.828,1698.828957,1698.830281,0.957,1324,28.6192,-18.69199,552.39,297.42,-5,18.48,3.57,117,180,46,137,98.7086555261947,25.0447529367069,122.8,124.421160959335,118.4,9.59999999999999,114.8,18.8,6.36681850823942,19.5421246574438,512,98.7086555261947,0,1,0,-0.0271217357910904
154,20230630T094513Z,Kogia-A,2023/06/30,10:13:32.101,1688120012.101,1699.101332,1699.103051,0.332,1719,28.6192,-18.691989,552.42,297.4,-5,18.48,3.57,117,182,60,152,98.8491167833895,27.447250886674,123.2,124.415694441163,118.8,9.60000000000001,114.8,18.4,5.93887865174496,20.9493579069185,512,98.8491167833895,0,1,0,-0.0296245421245421
155,20230630T094513Z,Kogia-A,2023/06/30,10:13:32.350,1688120012.35,1699.350212,1699.351522,0.212,1310,28.6192,-18.691989,552.41,297.41,-5,18.48,3.57,117,180,27,118,98.7305319377394,25.6297941876567,123.2,124.08447554157,118.4,10,114.8,18,5.62034131607186,22.0777473401375,512,98.7305319377394,0,1,0,-0.0219780219780215
156,20230630T094513Z,Kogia-A,2023/06/30,10:13:32.603,1688120012.603,1699.603859,1699.605155,0.859,1296,28.6192,-18.691991,552.33,297.47,-5,18.48,3.57,117,314,41,201,99.8187038872942,27.0037141089193,123.2,123.846077437722,120.8,4.8,116.8,14,5.69429400821392,21.749154023146,512,99.8187038872942,0,1,0,-0.0105076741440381
157,20230630T094513Z,Kogia-A,2023/06/30,10:13:32.886,1688120012.886,1699.886902,1699.888247,0.902,1345,28.6192,-18.691991,552.3,297.49,-5,18.48,3.57,117,314,68,228,99.759064619897,26.0784033281818,123.6,125.339673491684,121.2,4.8,118,13.2,6.55922390065429,19.1089182790636,512,99.759064619897,0,1,0,-0.0116721264777099
158,20230630T094513Z,Kogia-A,2023/06/30,10:13:33.128,1688120013.128,1700.128352,1700.129646,0.352,1294,28.6192,-18.691991,552.32,297.47,-5,18.48,3.57,117,326,126,292,99.8310311659594,27.9209896052536,123.6,124.004226789726,121.2,4.39999999999999,117.2,14,4.9464271834952,25.0694536055221,512,99.8310311659594,0,1,0,-0.00376651305683549
159,20230630T094513Z,Kogia-A,2023/06/30,10:13:33.337,1688120013.337,1700.337941,1700.33929,0.941,1349,28.6192,-18.691992,552.25,297.53,-5,18.48,3.58,117,316,78,239,99.8319197012873,26.8707637106686,123.2,123.273798659702,120.4,4.8,116.4,14.8,5.13610383179077,24.0014226146828,512,99.8319197012873,0,1,0,-0.00814041392306592
160,20230630T094513Z,Kogia-A,2023/06/30,10:13:33.609,1688120013.609,1700.609774,1700.611101,0.774,1327,28.6192,-18.691992,552.24,297.53,-5,18.48,3.58,117,316,98,259,99.7849998004323,25.6806581248109,123.2,123.987569832614,120.8,4.8,116.8,14.4,5.89339299778067,21.038401796606,512,99.7849998004323,0,1,0,-0.0098767104728358
161,20230630T094513Z,Kogia-A,2023/06/30,10:13:33.856,1688120013.856,1700.856827,1700.858204,0.827,1377,28.6192,-18.691993,552.21,297.56,-5,18.48,3.58,117,316,70,231,99.8087122337937,26.6723366132078,123.6,123.782130025504,120.8,4.8,116.8,14.4,5.16596817244166,23.9610709732652,512,99.8087122337937,0,1,0,-0.0101152857837352
162,20230630T094513Z,Kogia-A,2023/06/30,10:13:34.075,1688120014.075,1701.07503,1701.076595,0.03,1565,28.6192,-18.691992,552.27,297.51,-5,18.48,3.58,117,320,118,281,99.7990301066821,27.0861514284208,123.2,123.404296121165,120.4,4.8,116.4,15.6,4.73234202650603,26.0767914554723,512,99.7990301066821,0,1,0,-0.00737704918032822
163,20230630T094513Z,Kogia-A,2023/06/30,10:13:34.331,1688120014.331,1701.331107,1701.332488,0.107,1381,28.6192,-18.691992,552.23,297.54,-5,18.48,3.58,117,354,64,244,99.8239151252273,25.621050158415,123.6,123.691641860809,121.6,4,117.2,13.6,4.48815462496637,27.5595767518227,512,99.8239151252273,0,1,0,-0.00411239921759424
164,20230630T094513Z,Kogia-A,2023/06/30,10:13:34.586,1688120014.586,1701.586623,1701.587892,0.623,1269,28.6192,-18.691994,552.16,297.59,-5,18.48,3.58,117,322,65,229,99.7853914018516,25.8374657725931,123.6,123.74310893514,121.2,4.39999999999999,117.2,13.6,4.46892782440598,27.6896637845317,512,99.7853914018516,0,1,0,-0.00752426302206422
165,20230630T094513Z,Kogia-A,2023/06/30,10:13:40.384,1688120020.384,1707.384984,1707.386478,0.984,1494,28.619202,-18.692006,551.58,297.98,-5,18.47,3.59,117,78,146,185,96.3138508894396,29.0872835255957,124.4,123.775555316271,112.4,23.6,102.4,42.4,10.2447495303365,12.0818527529394,512,96.3138508894396,0.111452237656382,0.888547762343618,0,0.0305250305250301
166,20230630T094513Z,Kogia-A,2023/06/30,10:13:40.494,1688120020.494,1707.494313,1707.495969,0.313,1656,28.619202,-18.692005,551.63,297.95,-5,18.47,3.59,117,174,134,222,98.6215862715045,23.0880694655172,122,125.270019149806,118,18,107.6,34.4,11.097157228233,11.2884783529153,512,98.6215862715045,0.0548082765700625,0.945191723429937,0,-0.00751748251748243
167,20230630T094513Z,Kogia-A,2023/06/30,10:13:40.602,1688120020.602,1707.602222,1707.603921,0.222,1699,28.619202,-18.692005,551.63,297.95,-5,18.47,3.59,117,78,170,209,96.1950119448131,29.5641688959925,124.4,123.697962878409,112.4,23.6,102.4,42,10.2398086776616,12.0801048898755,512,96.1950119448131,0.11162375041516,0.88837624958484,0,0.0305250305250301
168,20230630T094513Z,Kogia-A,2023/06/30,10:13:40.716,1688120020.716,1707.716124,1707.718206,0.124,2082,28.619202,-18.692005,551.63,297.95,-5,18.47,3.59,117,174,214,302,98.679424733711,24.4960596610524,121.6,125.811625332962,117.6,19.6,108,35.2,11.5388851330242,10.9032739196692,512,98.679424733711,0.0510213454142989,0.948978654585701,0,0.00857948022127136
169,20230630T094513Z,Kogia-A,2023/06/30,10:13:40.833,1688120020.833,1707.833061,1707.834981,0.061,1920,28.619202,-18.692005,551.62,297.96,-5,18.47,3.59,117,172,199,286,98.6534218892851,23.6211588298151,122,125.908961445011,118,19.2,107.6,35.6,12.2574214871439,10.2720593868025,512,98.6534218892851,0.053675060841732,0.946324939158268,0,0.000526556776557041
170,20230630T094513Z,Kogia-A,2023/06/30,10:13:40.951,1688120020.951,1707.951187,1707.953111,0.187,1924,28.619202,-18.692005,551.6,297.97,-5,18.47,3.59,117,76,145,183,96.3566663914653,30.5239063839565,124.4,123.729494332295,112,24,102,42.8,10.4375029278232,11.8543194850246,512,96.3566663914653,0.114827875440362,0.885172124559638,0,0.0347985347985346
